<Task type="RT" task_scored="0" aat_min_time="10800" start_max_speed="60" start_max_height="0" start_max_height_ref="MSL" finish_min_height="0" finish_min_height_ref="AGL" fai_finish="0" min_points="2" max_points="13" homogeneous_tps="0" is_closed="0">
  <Point type="Start">
    <Waypoint name="003AP Sued" id="0" comment="" altitude="281.0">
      <Location longitude="11.6591667" latitude="50.8116667"/>
    </Waypoint>
    <ObservationZone type="Line" length="20000.0"/>
  </Point>
  <Point type="Turn">
    <Waypoint name="545STADTILM BF" id="0" comment="" altitude="377.0">
      <Location longitude="11.0708333" latitude="50.7666667"/>
    </Waypoint>
    <ObservationZone type="Keyhole"/>
  </Point>
  <Point type="Turn">
    <Waypoint name="047BAD LIEBENSTEIN" id="0" comment="" altitude="355.0">
      <Location longitude="10.34945" latitude="50.83805"/>
    </Waypoint>
    <ObservationZone type="Keyhole"/>
  </Point>
  <Point type="Turn">
    <Waypoint name="404NEUSTADT/WEID. CHU" id="0" comment="" altitude="428.0">
      <Location longitude="12.1725" latitude="49.7372167"/>
    </Waypoint>
    <ObservationZone type="Keyhole"/>
  </Point>
  <Point type="Turn">
    <Waypoint name="011ADORF B92YB283" id="0" comment="" altitude="450.0">
      <Location longitude="12.2575" latitude="50.3216667"/>
    </Waypoint>
    <ObservationZone type="Keyhole"/>
  </Point>
  <Point type="Turn">
    <Waypoint name="282JOEHSTADT" id="0" comment="" altitude="786.0">
      <Location longitude="13.0891667" latitude="50.5138833"/>
    </Waypoint>
    <ObservationZone type="Keyhole"/>
  </Point>
  <Point type="Finish">
    <Waypoint name="008Zielkreis" id="0" comment="" altitude="373.0">
      <Location longitude="11.7133333" latitude="50.9147167"/>
    </Waypoint>
    <ObservationZone type="Cylinder" radius="5000.0"/>
  </Point>
</Task>
