<Task type="AAT" task_scored="0" aat_min_time="10800" start_max_speed="60" start_max_height="0" start_max_height_ref="MSL" finish_min_height="0" finish_min_height_ref="AGL" fai_finish="0" min_points="2" max_points="13" homogeneous_tps="0" is_closed="0">
  <Point type="Start">
    <Waypoint name="001AP Nord" id="0" comment="" altitude="341.0">
      <Location longitude="11.7113833" latitude="50.9802833"/>
    </Waypoint>
    <ObservationZone type="Line" length="20000.0"/>
  </Point>
  <Point type="Area">
    <Waypoint name="526SEESEN" id="0" comment="" altitude="130.0">
      <Location longitude="10.1297167" latitude="51.885"/>
    </Waypoint>
    <ObservationZone type="Cylinder" radius="50000.0"/>
  </Point>
  <Point type="Area">
    <Waypoint name="227GUESTEN BF" id="0" comment="" altitude="80.0">
      <Location longitude="11.6016667" latitude="51.7933333"/>
    </Waypoint>
    <ObservationZone type="Cylinder" radius="25000.0"/>
  </Point>
  <Point type="Area">
    <Waypoint name="447POESSNECK BF SUE" id="0" comment="" altitude="224.0">
      <Location longitude="11.5883333" latitude="50.6908333"/>
    </Waypoint>
    <ObservationZone type="Cylinder" radius="15000.0"/>
  </Point>
  <Point type="Finish">
    <Waypoint name="008Zielkreis" id="0" comment="" altitude="373.0">
      <Location longitude="11.7133333" latitude="50.9147167"/>
    </Waypoint>
    <ObservationZone type="Cylinder" radius="5000.0"/>
  </Point>
</Task>
